<?xml version="1.0"?>
<gpx version="1.1" creator="Xcode">
    
    
    <!--<wpt lat="22.41299733297097" lon="114.20867979526521">
        <name>CC Gate 1</name>
    </wpt>-->
    
    
    <!--<wpt lat="22.413101475870715" lon="114.20863687992096">
        <name>CC Gate 2</name>
    </wpt>-->
    
    <!--<wpt lat="22.41399908524635" lon="114.2095059156418">
        <name>CC Stone</name>
    </wpt>-->
    
    <!--<wpt lat="22.415531454700233" lon="114.20769274234773">
        <name>Orchid Lodge</name>
    </wpt>-->
    
    <!--<wpt lat="22.41603232260355" lon="114.20707046985628">
        <name>CC Chapel</name>
    </wpt>-->
    
    <!--<wpt lat="22.416741469120385" lon="114.20633018016817">
        <name>Memorial Building</name>
    </wpt>-->
    
    <!--<wpt lat="22.41724233266036" lon="114.20646965503694">
        <name>Theology Building</name>
    </wpt>-->
    
    <!--<wpt lat="22.416557984005177" lon="114.2086958885193">
        <name>Library</name>
    </wpt>-->
    
    <!--<wpt lat="22.416334826105988" lon="114.20930206775667">
        <name>Zhit Ging</name>
    </wpt>-->
    
    <!--<wpt lat="22.41704893012136" lon="114.20891582965852">
        <name>Pong Can</name>
    </wpt>-->
    
    <!--<wpt lat="22.41664724706446" lon="114.20975267887117">
        <name>CC Can</name>
    </wpt>-->
    
    <!--<wpt lat="22.416067036153684" lon="114.21038568019867">
        <name>YIA grass</name>
    </wpt>-->
    
    <!--<wpt lat="22.416835691112354" lon="114.21007454395296">
        <name>Behind CC Can</name>
    </wpt>-->
    
    <!--<wpt lat="22.417034052991827" lon="114.20990824699403">
        <name>Hua Lien Tang</name>
    </wpt>-->
    
    <!--<wpt lat="22.417272086873233" lon="114.20990824699403">
        <name>In Front Of Hua Lien Tang</name>
    </wpt>-->
    
    <!--<wpt lat="22.417351431409713" lon="114.21014428138734">
        <name>Hua Lien Tang 3</name>
    </wpt>-->
    
</gpx>
